[{"Name":"AsiaWorld-Expo","Lon":113.9433592,"Lat":22.3222468,"ID":56},{"Name":"Airport","Lon":113.9395829624,"Lat":22.3186418079,"ID":47},{"Name":"Tsing Yi","Lon":114.1071468,"Lat":22.3585062,"ID":46},{"Name":"Kowloon","Lon":114.1601252,"Lat":22.3043774,"ID":45},{"Name":"Hong Kong","Lon":114.1858373861,"Lat":22.3078711013,"ID":44},{"Name":"Sunny Bay","Lon":114.0288655,"Lat":22.331859,"ID":54},{"Name":"Disneyland Resort","Lon":114.0446263,"Lat":22.315482,"ID":55},{"Name":"Lo Wu","Lon":114.1132237,"Lat":22.5277697,"ID":76},{"Name":"Sheung Shui","Lon":114.1279651,"Lat":22.5012384,"ID":75},{"Name":"Fanling","Lon":114.1386498,"Lat":22.4921536,"ID":74},{"Name":"Tai Wo","Lon":114.1740591123,"Lat":22.2761456843,"ID":73},{"Name":"Tai Po Market","Lon":114.1695782,"Lat":22.4447216,"ID":72},{"Name":"University","Lon":114.2073315256,"Lat":22.4185472125,"ID":71},{"Name":"Fo Tan","Lon":114.1984072,"Lat":22.3956164,"ID":69},{"Name":"Sha Tin","Lon":114.1870202,"Lat":22.3820969,"ID":68},{"Name":"Tai Wai","Lon":114.1784769,"Lat":22.3731096,"ID":67},{"Name":"Kowloon Tong","Lon":114.1792575,"Lat":22.339224,"ID":8},{"Name":"Mong Kok East","Lon":114.172633,"Lat":22.3221398,"ID":65},{"Name":"Hung Hom","Lon":114.1897033,"Lat":22.3069345,"ID":64},{"Name":"Exhibition Centre","Lon":114.1756115,"Lat":22.2816569,"ID":94},{"Name":"Admiralty","Lon":114.165251,"Lat":22.2791909,"ID":2},{"Name":"Lok Ma Chau","Lon":114.0656988,"Lat":22.5145541,"ID":78},{"Name":"Chai Wan","Lon":114.1773489365,"Lat":22.2772050154,"ID":37},{"Name":"Heng Fa Chuen","Lon":114.2397439,"Lat":22.276642,"ID":36},{"Name":"Shau Kei Wan","Lon":114.2273866126,"Lat":22.2774377337,"ID":35},{"Name":"Sai Wan Ho","Lon":114.2221369,"Lat":22.2818214,"ID":34},{"Name":"Tai Koo","Lon":114.2163888,"Lat":22.2846098,"ID":33},{"Name":"Quarry Bay","Lon":114.2085791,"Lat":22.2881324,"ID":32},{"Name":"North Point","Lon":114.2005352,"Lat":22.2910282,"ID":31},{"Name":"Fortress Hill","Lon":114.195358,"Lat":22.288232,"ID":30},{"Name":"Tin Hau","Lon":114.1923359,"Lat":22.2831568,"ID":29},{"Name":"Causeway Bay","Lon":114.1836591,"Lat":22.2802262,"ID":28},{"Name":"Wan Chai","Lon":114.1730611,"Lat":22.277581,"ID":27},{"Name":"Central","Lon":114.1591446,"Lat":22.2815716,"ID":1},{"Name":"Sheung Wan","Lon":114.1527255,"Lat":22.2862381,"ID":26},{"Name":"Sai Ying Pun","Lon":114.1426448,"Lat":22.2854255,"ID":81},{"Name":"HKU","Lon":114.1354938,"Lat":22.2840204,"ID":82},{"Name":"Kennedy Town","Lon":114.1285322,"Lat":22.2812656,"ID":83},{"Name":"Tiu Keng Leng","Lon":114.2523004,"Lat":22.3039136,"ID":49},{"Name":"Yau Tong","Lon":114.2379982,"Lat":22.2950916,"ID":48},{"Name":"Lam Tin","Lon":114.2330387,"Lat":22.3065779,"ID":38},{"Name":"Kwun Tong","Lon":114.2265343,"Lat":22.3121633,"ID":15},{"Name":"Ngau Tau Kok","Lon":114.2189454,"Lat":22.3155417,"ID":14},{"Name":"Kowloon Bay","Lon":114.2140549,"Lat":22.3234602,"ID":13},{"Name":"Choi Hung","Lon":114.2090659,"Lat":22.3346738,"ID":12},{"Name":"Diamond Hill","Lon":114.2014196,"Lat":22.340227,"ID":11},{"Name":"Wong Tai Sin","Lon":114.1940089,"Lat":22.3416781,"ID":10},{"Name":"Lok Fu","Lon":114.1872697,"Lat":22.3380974,"ID":9},{"Name":"Shek Kip Mei","Lon":114.166978539,"Lat":22.3317300102,"ID":7},{"Name":"Prince Edward","Lon":114.1682588,"Lat":22.3246641,"ID":16},{"Name":"Mong Kok","Lon":114.169371,"Lat":22.3192904,"ID":6},{"Name":"Yau Ma Tei","Lon":114.1706419,"Lat":22.3129447,"ID":5},{"Name":"Ho Man Tin","Lon":114.1751699218,"Lat":22.3161548074,"ID":84},{"Name":"Whampoa","Lon":114.1898372,"Lat":22.3048489,"ID":85},{"Name":"Wu Kai Sha","Lon":114.241326276,"Lat":22.4305038862,"ID":103},{"Name":"Ma On Shan","Lon":114.2316513,"Lat":22.4248083,"ID":102},{"Name":"Heng On","Lon":114.2258014,"Lat":22.4175635,"ID":101},{"Name":"Tai Shui Hang","Lon":114.2228773,"Lat":22.406851,"ID":100},{"Name":"Shek Mun","Lon":114.2084122,"Lat":22.3877164,"ID":99},{"Name":"City One","Lon":114.20344,"Lat":22.386844,"ID":98},{"Name":"Sha Tin Wai","Lon":114.1949721,"Lat":22.3770129,"ID":97},{"Name":"Che Kung Temple","Lon":114.1861372,"Lat":22.3747732,"ID":96},{"Name":"Hin Keng","Lon":114.174468652,"Lat":22.3645046064,"ID":90},{"Name":"Kai Tak","Lon":114.1921759107,"Lat":22.3296732392,"ID":91},{"Name":"Sung Wong Toi","Lon":114.1894582,"Lat":22.3242891,"ID":92},{"Name":"To Kwa Wan","Lon":114.1912147875,"Lat":22.3180611832,"ID":93},{"Name":"East Tsim Sha Tsui","Lon":114.1802636,"Lat":22.2997418,"ID":80},{"Name":"Austin","Lon":114.1664612,"Lat":22.3045653,"ID":111},{"Name":"Nam Cheong","Lon":114.1635194942,"Lat":22.3293314462,"ID":53},{"Name":"Mei Foo","Lon":114.1364582,"Lat":22.3392754,"ID":20},{"Name":"Tsuen Wan West","Lon":114.1100029,"Lat":22.3684196,"ID":114},{"Name":"Kam Sheung Road","Lon":114.0770425,"Lat":22.4240291,"ID":115},{"Name":"Yuen Long","Lon":114.0222144,"Lat":22.4436757,"ID":116},{"Name":"Long Ping","Lon":114.0254177,"Lat":22.4476556,"ID":117},{"Name":"Tin Shui Wai","Lon":114.0082979,"Lat":22.4622475,"ID":118},{"Name":"Siu Hong","Lon":113.9788812,"Lat":22.411598,"ID":119},{"Name":"Tuen Mun","Lon":113.9731255,"Lat":22.3948053,"ID":120},{"Name":"Tung Chung","Lon":113.9412755,"Lat":22.2891736,"ID":43},{"Name":"Lai King","Lon":114.1260618,"Lat":22.3483863,"ID":21},{"Name":"Olympic","Lon":114.1602627,"Lat":22.3177536,"ID":41},{"Name":"Po Lam","Lon":114.2575637,"Lat":22.3228635,"ID":52},{"Name":"Hang Hau","Lon":114.2643941,"Lat":22.3156555,"ID":51},{"Name":"Tseung Kwan O","Lon":114.2572435,"Lat":22.3099297,"ID":50},{"Name":"LOHAS Park","Lon":114.2688194,"Lat":22.2956082,"ID":57},{"Name":"Tsuen Wan","Lon":114.1168947,"Lat":22.3740704,"ID":25},{"Name":"Tai Wo Hau","Lon":114.1243084,"Lat":22.367876,"ID":24},{"Name":"Kwai Hing","Lon":114.1311992,"Lat":22.3631663,"ID":23},{"Name":"Kwai Fong","Lon":114.1278286,"Lat":22.3568488,"ID":22},{"Name":"Lai Chi Kok","Lon":114.1431459,"Lat":22.3362546,"ID":19},{"Name":"Cheung Sha Wan","Lon":114.1562834,"Lat":22.3354843,"ID":18},{"Name":"Sham Shui Po","Lon":114.1623844,"Lat":22.3308535,"ID":17},{"Name":"Jordan","Lon":114.1716634,"Lat":22.3048571,"ID":4},{"Name":"Tsim Sha Tsui","Lon":114.1721795,"Lat":22.2976146,"ID":3},{"Name":"Ocean Park","Lon":114.1744541,"Lat":22.2486779,"ID":86},{"Name":"Wong Chuk Hang","Lon":114.1781864282,"Lat":22.2459090112,"ID":87},{"Name":"Lei Tung","Lon":114.1560623,"Lat":22.2417525,"ID":88},{"Name":"South Horizons","Lon":114.1468358,"Lat":22.2430155,"ID":89}]